[
  {
    "name": "Aeroterra",
    "address": "Av. E. Madero 1020",
    "phoneNumber": "549 11 5272 0900",
    "category": "Residencial",
    "coords": { "lat": -34.595986, "lng": -58.3724715 }
  },
  {
    "name": "Workinn",
    "address": "Pres. Tte. Gral. Juan Domingo Perón 698",
    "phoneNumber": "3333333",
    "category": "Residencial",
    "coords": { "lat": -34.6058542, "lng": -58.3786129 }
  },
  {
    "name": "Teatro Gran Rex",
    "address": "Av. Corrientes 857, CABA",
    "phoneNumber": "0000000",
    "category": "Comercial",
    "coords": { "lat": -34.6033873, "lng": -58.3810553 }
  },
  {
    "name": "Luna Park",
    "address": "Av. Eduardo Madero 420, C1106 CABA",
    "phoneNumber": "011 5278-5800",
    "category": "Comercial",
    "coords": { "lat": -34.6023028, "lng": -58.3686967 }
  },
  {
    "name": "Cabildo",
    "address": "Bolívar 65, C1066 CABA",
    "phoneNumber": "011 4342-6729",
    "category": "Comercial",
    "coords": { "lat": -34.6087392, "lng": -58.3759749 }
  },
  {
    "name": "Reserva Ecológica",
    "address": "Av. Dr. Tristán Achával Rodríguez 1550",
    "phoneNumber": "011 4893-1853",
    "category": "Comercial",
    "coords": { "lat": -34.6164839, "lng": -58.3589213 }
  }
]
